11/14/2012 10:33:28 AM,FE,1A,F8, 1, 1,3E,mavlink_nav_controller_output_t,nav_roll,0,nav_pitch,0,alt_error,0,aspd_error,0,xtrack_error,0,nav_bearing,114,target_bearing,114,wp_dist,65535,,Len,34
11/14/2012 10:33:28 AM,FE,14,F9, 1, 1,4A,mavlink_vfr_hud_t,airspeed,0.02,groundspeed,0.02,alt,-1.43,climb,-0.12,heading,241,throttle,17,,Len,28
11/14/2012 10:33:28 AM,FE, 9,FA, 1, 1, 0,mavlink_heartbeat_t,custom_mode,0,type,2,autopilot,3,base_mode,81,system_status,4,mavlink_version,3,,Len,17
11/14/2012 10:33:28 AM,FE,1A,FB, 1, 1,1B,mavlink_raw_imu_t,time_usec,130396452,xacc,-15,yacc,17,zacc,-1025,xgyro,1,ygyro,0,zgyro,0,xmag,-51,ymag,147,zmag,169,,Len,34
11/14/2012 10:33:28 AM,FE, E,FC, 1, 1,1D,mavlink_scaled_pressure_t,time_boot_ms,130397,press_abs,1019.521,press_diff,0.1814844,temperature,1824,,Len,22
11/14/2012 10:33:28 AM,FE,2A,FD, 1, 1,96,mavlink_sensor_offsets_t,mag_declination,-0.1542217,raw_press,8851106,raw_temp,8192108,gyro_cal_x,-0.04424693,gyro_cal_y,-0.008855646,gyro_cal_z,0.005452795,accel_cal_x,0.2503985,accel_cal_y,-0.179539,accel_cal_z,1.383022,mag_ofs_x,29,mag_ofs_y,11,mag_ofs_z,2,,Len,50
11/14/2012 10:33:28 AM,FE,15,FE, 1, 1,24,mavlink_servo_output_raw_t,time_usec,130398696,servo1_raw,1126,servo2_raw,1126,servo3_raw,1126,servo4_raw,1126,servo5_raw,1126,servo6_raw,1126,servo7_raw,0,servo8_raw,0,port,0,,Len,29
11/14/2012 10:33:28 AM,FE,16,FF, 1, 1,23,mavlink_rc_channels_raw_t,time_boot_ms,130398,chan1_raw,1525,chan2_raw,1522,chan3_raw,1193,chan4_raw,1514,chan5_raw,1123,chan6_raw,1521,chan7_raw,1496,chan8_raw,1496,port,0,rssi,1,,Len,30
11/14/2012 10:33:28 AM,FE,1C, 0, 1, 1,1E,mavlink_attitude_t,time_boot_ms,130399,roll,-0.01541634,pitch,-0.01667172,yaw,-2.063713,rollspeed,0.00167815,pitchspeed,0.0008739997,yawspeed,-0.0006638071,,Len,36
11/14/2012 10:33:28 AM,FE,1C, 1, 1, 1,A3,mavlink_ahrs_t,omegaIx,-0.0003515472,omegaIy,-1.236221E-06,omegaIz,-0.0003677115,accel_weight,1,renorm_val,0,error_rp,0.0004092929,error_yaw,0.001840103,,Len,36
11/14/2012 10:33:28 AM,FE, 3, 2, 1, 1,A5,mavlink_hwstatus_t,Vcc,4752,I2Cerr,0,,Len,11
11/14/2012 10:33:28 AM,FE,14, 3, 1, 1,4A,mavlink_vfr_hud_t,airspeed,0.02,groundspeed,0.02,alt,-1.45,climb,-0.12,heading,241,throttle,17,,Len,28
11/14/2012 10:33:28 AM,FE,1C, 4, 1, 1,1E,mavlink_attitude_t,time_boot_ms,130516,roll,-0.01538515,pitch,-0.01668944,yaw,-2.064098,rollspeed,0.001146041,pitchspeed,0.0003418904,yawspeed,0.0004004124,,Len,36
11/14/2012 10:33:28 AM,FE,14, 5, 1, 1,4A,mavlink_vfr_hud_t,airspeed,0.02,groundspeed,0.02,alt,-1.45,climb,-0.11,heading,241,throttle,17,,Len,28
11/14/2012 10:33:28 AM,FE,1C, 6, 1, 1,1E,mavlink_attitude_t,time_boot_ms,130638,roll,-0.01532843,pitch,-0.01662463,yaw,-2.064322,rollspeed,0.0006139316,pitchspeed,0.0008739997,yawspeed,-0.0006638071,,Len,36
11/14/2012 10:33:28 AM,FE,14, 7, 1, 1,4A,mavlink_vfr_hud_t,airspeed,0.04,groundspeed,0.04,alt,-1.45,climb,-0.06,heading,241,throttle,17,,Len,28
11/14/2012 10:33:28 AM,FE,1C, 8, 1, 1,1E,mavlink_attitude_t,time_boot_ms,130756,roll,-0.01533943,pitch,-0.01658785,yaw,-2.064162,rollspeed,8.182228E-05,pitchspeed,-0.0001902189,yawspeed,-0.0001316974,,Len,36
11/14/2012 10:33:28 AM,FE,14, 9, 1, 1,4A,mavlink_vfr_hud_t,airspeed,0.04,groundspeed,0.04,alt,-1.48,climb,-0.1,heading,241,throttle,17,,Len,28
11/14/2012 10:33:28 AM,FE,1F, A, 1, 1, 1,mavlink_sys_status_t,onboard_control_sensors_present,4294966319,onboard_control_sensors_enabled,4294945839,onboard_control_sensors_health,4294966319,load,0,voltage_battery,10080,current_battery,-1,drop_rate_comm,0,errors_comm,0,errors_count1,0,errors_count2,0,errors_count3,0,errors_count4,0,battery_remaining,255,,Len,39
11/14/2012 10:33:28 AM,FE, 4, B, 1, 1,98,mavlink_meminfo_t,brkval,7220,freemem,916,,Len,12
11/14/2012 10:33:28 AM,FE, 2, C, 1, 1,2A,mavlink_mission_current_t,seq,0,,Len,10
11/14/2012 10:33:28 AM,FE,1E, D, 1, 1,18,mavlink_gps_raw_int_t,time_usec,130657000,lat,360044735,lon,-789410556,alt,112600,eph,192,epv,65535,vel,4,cog,13945,fix_type,3,satellites_visible,9,,Len,38
11/14/2012 10:33:28 AM,FE,1A, E, 1, 1,3E,mavlink_nav_controller_output_t,nav_roll,0,nav_pitch,0,alt_error,0,aspd_error,0,xtrack_error,0,nav_bearing,114,target_bearing,114,wp_dist,65535,,Len,34
11/14/2012 10:33:28 AM,FE,1C, F, 1, 1,1E,mavlink_attitude_t,time_boot_ms,130877,roll,-0.01532632,pitch,-0.01655957,yaw,-2.064211,rollspeed,0.00167815,pitchspeed,-0.0001902189,yawspeed,0.0004004124,,Len,36
11/14/2012 10:33:28 AM,FE,1A,10, 1, 1,1B,mavlink_raw_imu_t,time_usec,130918760,xacc,-15,yacc,19,zacc,-1027,xgyro,1,ygyro,0,zgyro,0,xmag,-52,ymag,157,zmag,170,,Len,34
11/14/2012 10:33:28 AM,FE, E,11, 1, 1,1D,mavlink_scaled_pressure_t,time_boot_ms,130919,press_abs,1019.538,press_diff,0.1975781,temperature,1824,,Len,22
11/14/2012 10:33:28 AM,FE,2A,12, 1, 1,96,mavlink_sensor_offsets_t,mag_declination,-0.1542217,raw_press,8851078,raw_temp,8192373,gyro_cal_x,-0.04424693,gyro_cal_y,-0.008855646,gyro_cal_z,0.005452795,accel_cal_x,0.2503985,accel_cal_y,-0.179539,accel_cal_z,1.383022,mag_ofs_x,29,mag_ofs_y,11,mag_ofs_z,2,,Len,50
11/14/2012 10:33:28 AM,FE,15,13, 1, 1,24,mavlink_servo_output_raw_t,time_usec,130920896,servo1_raw,1126,servo2_raw,1126,servo3_raw,1126,servo4_raw,1126,servo5_raw,1126,servo6_raw,1126,servo7_raw,0,servo8_raw,0,port,0,,Len,29
11/14/2012 10:33:28 AM,FE,16,14, 1, 1,23,mavlink_rc_channels_raw_t,time_boot_ms,130920,chan1_raw,1525,chan2_raw,1522,chan3_raw,1193,chan4_raw,1515,chan5_raw,1124,chan6_raw,1521,chan7_raw,1496,chan8_raw,1496,port,0,rssi,1,,Len,30
11/14/2012 10:33:28 AM,FE,14,15, 1, 1,4A,mavlink_vfr_hud_t,airspeed,0.03,groundspeed,0.03,alt,-1.51,climb,-0.2,heading,241,throttle,17,,Len,28
11/14/2012 10:33:28 AM,FE,1C,16, 1, 1,A3,mavlink_ahrs_t,omegaIx,-0.0003515472,omegaIy,-1.236221E-06,omegaIz,-0.0003677115,accel_weight,1,renorm_val,0,error_rp,0.0003268367,error_yaw,0.003046921,,Len,36
11/14/2012 10:33:28 AM,FE, 3,17, 1, 1,A5,mavlink_hwstatus_t,Vcc,4752,I2Cerr,0,,Len,11
11/14/2012 10:33:28 AM,FE,1C,18, 1, 1,1E,mavlink_attitude_t,time_boot_ms,130997,roll,-0.01537883,pitch,-0.01657202,yaw,-2.063815,rollspeed,-0.000450287,pitchspeed,-0.0001902189,yawspeed,0.0004004124,,Len,36
11/14/2012 10:33:28 AM,FE,14,19, 1, 1,4A,mavlink_vfr_hud_t,airspeed,0.03,groundspeed,0.03,alt,-1.62,climb,-0.4,heading,241,throttle,17,,Len,28
11/14/2012 10:33:28 AM,FE,1C,1A, 1, 1,1E,mavlink_attitude_t,time_boot_ms,131119,roll,-0.01539006,pitch,-0.01659337,yaw,-2.064002,rollspeed,0.0006139316,pitchspeed,0.0003418904,yawspeed,0.0004004124,,Len,36
11/14/2012 10:33:28 AM,FE,14,1B, 1, 1,4A,mavlink_vfr_hud_t,airspeed,0.02,groundspeed,0.02,alt,-1.69,climb,-0.43,heading,241,throttle,17,,Len,28
11/14/2012 10:33:28 AM,FE,1C,1C, 1, 1,1E,mavlink_attitude_t,time_boot_ms,131239,roll,-0.01543407,pitch,-0.01667082,yaw,-2.064302,rollspeed,8.182228E-05,pitchspeed,-0.0001902189,yawspeed,0.0009325221,,Len,36
11/14/2012 10:33:28 AM,FE,14,1D, 1, 1,4A,mavlink_vfr_hud_t,airspeed,0.02,groundspeed,0.02,alt,-1.72,climb,-0.48,heading,241,throttle,17,,Len,28
11/14/2012 10:33:28 AM,FE,1F,1E, 1, 1, 1,mavlink_sys_status_t,onboard_control_sensors_present,4294966319,onboard_control_sensors_enabled,4294945839,onboard_control_sensors_health,4294966319,load,0,voltage_battery,10080,current_battery,-1,drop_rate_comm,0,errors_comm,0,errors_count1,0,errors_count2,0,errors_count3,0,errors_count4,0,battery_remaining,255,,Len,39
11/14/2012 10:33:28 AM,FE, 4,1F, 1, 1,98,mavlink_meminfo_t,brkval,7220,freemem,916,,Len,12
11/14/2012 10:33:28 AM,FE, 2,20, 1, 1,2A,mavlink_mission_current_t,seq,0,,Len,10
11/14/2012 10:33:28 AM,FE,1E,21, 1, 1,18,mavlink_gps_raw_int_t,time_usec,131258000,lat,360044739,lon,-789410553,alt,112530,eph,192,epv,65535,vel,2,cog,13945,fix_type,3,satellites_visible,9,,Len,38
11/14/2012 10:33:28 AM,FE,1A,22, 1, 1,3E,mavlink_nav_controller_output_t,nav_roll,0,nav_pitch,0,alt_error,0,aspd_error,0,xtrack_error,0,nav_bearing,114,target_bearing,114,wp_dist,65535,,Len,34
11/14/2012 10:33:28 AM,FE,1C,23, 1, 1,1E,mavlink_attitude_t,time_boot_ms,131360,roll,-0.01547038,pitch,-0.0166475,yaw,-2.064569,rollspeed,0.0006139316,pitchspeed,-0.0001902189,yawspeed,-0.0001316974,,Len,36
11/14/2012 10:33:28 AM,FE, 9,24, 1, 1, 0,mavlink_heartbeat_t,custom_mode,0,type,2,autopilot,3,base_mode,81,system_status,4,mavlink_version,3,,Len,17
11/14/2012 10:33:28 AM,FE, 2,96,FF,BE,15,mavlink_param_request_list_t,target_system,1,target_component,1,,Len,10
11/14/2012 10:33:28 AM,FE,14,25, 1, 1,4A,mavlink_vfr_hud_t,airspeed,0.02,groundspeed,0.02,alt,-1.75,climb,-0.44,heading,241,throttle,17,,Len,28
11/14/2012 10:33:28 AM,FE,1A,26, 1, 1,1B,mavlink_raw_imu_t,time_usec,131440896,xacc,-16,yacc,15,zacc,-1028,xgyro,0,ygyro,0,zgyro,0,xmag,-51,ymag,151,zmag,168,,Len,34
11/14/2012 10:33:28 AM,FE, E,27, 1, 1,1D,mavlink_scaled_pressure_t,time_boot_ms,131441,press_abs,1019.545,press_diff,0.2053125,temperature,1820,,Len,22
11/14/2012 10:33:28 AM,FE,2A,28, 1, 1,96,mavlink_sensor_offsets_t,mag_declination,-0.1542217,raw_press,8851560,raw_temp,8191149,gyro_cal_x,-0.04424693,gyro_cal_y,-0.008855646,gyro_cal_z,0.005452795,accel_cal_x,0.2503985,accel_cal_y,-0.179539,accel_cal_z,1.383022,mag_ofs_x,29,mag_ofs_y,11,mag_ofs_z,2,,Len,50
11/14/2012 10:33:28 AM,FE,15,29, 1, 1,24,mavlink_servo_output_raw_t,time_usec,131443096,servo1_raw,1126,servo2_raw,1126,servo3_raw,1126,servo4_raw,1126,servo5_raw,1126,servo6_raw,1126,servo7_raw,0,servo8_raw,0,port,0,,Len,29
11/14/2012 10:33:28 AM,FE,16,2A, 1, 1,23,mavlink_rc_channels_raw_t,time_boot_ms,131443,chan1_raw,1524,chan2_raw,1522,chan3_raw,1194,chan4_raw,1514,chan5_raw,1124,chan6_raw,1521,chan7_raw,1496,chan8_raw,1496,port,0,rssi,1,,Len,30
11/14/2012 10:33:28 AM,FE,1C,2B, 1, 1,A3,mavlink_ahrs_t,omegaIx,-0.0003515472,omegaIy,-1.236221E-06,omegaIz,-0.0003677115,accel_weight,1,renorm_val,0,error_rp,0.0008607814,error_yaw,0.003742474,,Len,36
11/14/2012 10:33:28 AM,FE, 3,2C, 1, 1,A5,mavlink_hwstatus_t,Vcc,4752,I2Cerr,0,,Len,11
11/14/2012 10:33:28 AM,FE,1C,2D, 1, 1,1E,mavlink_attitude_t,time_boot_ms,131478,roll,-0.01550603,pitch,-0.01658527,yaw,-2.064332,rollspeed,0.001146041,pitchspeed,0.00140611,yawspeed,0.0004004124,,Len,36
11/14/2012 10:33:28 AM,FE,14,2E, 1, 1,4A,mavlink_vfr_hud_t,airspeed,0.02,groundspeed,0.02,alt,-1.73,climb,-0.2,heading,241,throttle,17,,Len,28
11/14/2012 10:33:28 AM,FE,1C,2F, 1, 1,1E,mavlink_attitude_t,time_boot_ms,131598,roll,-0.01552555,pitch,-0.01658768,yaw,-2.064126,rollspeed,0.0006139316,pitchspeed,0.0008739997,yawspeed,0.0004004124,,Len,36
11/14/2012 10:33:28 AM,FE,14,30, 1, 1,4A,mavlink_vfr_hud_t,airspeed,0.02,groundspeed,0.02,alt,-1.73,climb,-0.2,heading,241,throttle,17,,Len,28
11/14/2012 10:33:28 AM,FE,19,31, 1, 1,16,mavlink_param_value_t,param_value,120,param_count,252,param_index,0,param_id,SYSID_SW_MREV,param_type,4,,Len,33
11/14/2012 10:33:29 AM,FE,19,32, 1, 1,16,mavlink_param_value_t,param_value,10,param_count,252,param_index,1,param_id,SYSID_SW_TYPE,param_type,2,,Len,33
11/14/2012 10:33:29 AM,FE,19,33, 1, 1,16,mavlink_param_value_t,param_value,1,param_count,252,param_index,2,param_id,SYSID_THISMAV,param_type,4,,Len,33
11/14/2012 10:33:29 AM,FE,19,34, 1, 1,16,mavlink_param_value_t,param_value,255,param_count,252,param_index,3,param_id,SYSID_MYGCS,param_type,4,,Len,33
11/14/2012 10:33:29 AM,FE,19,35, 1, 1,16,mavlink_param_value_t,param_value,57,param_count,252,param_index,4,param_id,SERIAL3_BAUD,param_type,2,,Len,33
11/14/2012 10:33:29 AM,FE,19,36, 1, 1,16,mavlink_param_value_t,param_value,0,param_count,252,param_index,5,param_id,TELEM_DELAY,param_type,2,,Len,33
11/14/2012 10:33:29 AM,FE,19,37, 1, 1,16,mavlink_param_value_t,param_value,1500,param_count,252,param_index,6,param_id,ALT_HOLD_RTL,param_type,4,,Len,33
11/14/2012 10:33:29 AM,FE,19,38, 1, 1,16,mavlink_param_value_t,param_value,0,param_count,252,param_index,7,param_id,SONAR_ENABLE,param_type,2,,Len,33
11/14/2012 10:33:29 AM,FE,19,39, 1, 1,16,mavlink_param_value_t,param_value,0,param_count,252,param_index,8,param_id,SONAR_TYPE,param_type,2,,Len,33
11/14/2012 10:33:29 AM,FE,19,3A, 1, 1,16,mavlink_param_value_t,param_value,0,param_count,252,param_index,9,param_id,BATT_MONITOR,param_type,2,,Len,33
11/14/2012 10:33:29 AM,FE,19,3B, 1, 1,16,mavlink_param_value_t,param_value,3.56,param_count,252,param_index,10,param_id,VOLT_DIVIDER,param_type,9,,Len,33
11/14/2012 10:33:29 AM,FE,19,3C, 1, 1,16,mavlink_param_value_t,param_value,27.32,param_count,252,param_index,11,param_id,AMP_PER_VOLT,param_type,9,,Len,33
11/14/2012 10:33:29 AM,FE,19,3D, 1, 1,16,mavlink_param_value_t,param_value,5,param_count,252,param_index,12,param_id,INPUT_VOLTS,param_type,9,,Len,33
11/14/2012 10:33:29 AM,FE,19,3E, 1, 1,16,mavlink_param_value_t,param_value,1760,param_count,252,param_index,13,param_id,BATT_CAPACITY,param_type,4,,Len,33
11/14/2012 10:33:29 AM,FE,19,3F, 1, 1,16,mavlink_param_value_t,param_value,1,param_count,252,param_index,14,param_id,MAG_ENABLE,param_type,2,,Len,33
11/14/2012 10:33:29 AM,FE,19,40, 1, 1,16,mavlink_param_value_t,param_value,0,param_count,252,param_index,15,param_id,FLOW_ENABLE,param_type,2,,Len,33
11/14/2012 10:33:29 AM,FE,19,41, 1, 1,16,mavlink_param_value_t,param_value,9.6,param_count,252,param_index,16,param_id,LOW_VOLT,param_type,9,,Len,33
11/14/2012 10:33:29 AM,FE,19,42, 1, 1,16,mavlink_param_value_t,param_value,0,param_count,252,param_index,17,param_id,SUPER_SIMPLE,param_type,2,,Len,33
11/14/2012 10:33:29 AM,FE, 9,43, 1, 1, 0,mavlink_heartbeat_t,custom_mode,0,type,2,autopilot,3,base_mode,81,system_status,4,mavlink_version,3,,Len,17
11/14/2012 10:33:29 AM,FE,19,44, 1, 1,16,mavlink_param_value_t,param_value,200,param_count,252,param_index,18,param_id,APPROACH_ALT,param_type,4,,Len,33
11/14/2012 10:33:29 AM,FE,19,45, 1, 1,16,mavlink_param_value_t,param_value,54,param_count,252,param_index,19,param_id,TILT,param_type,2,,Len,33
11/14/2012 10:33:29 AM,FE,19,46, 1, 1,16,mavlink_param_value_t,param_value,1,param_count,252,param_index,20,param_id,BATT_VOLT_PIN,param_type,2,,Len,33
11/14/2012 10:33:29 AM,FE,19,47, 1, 1,16,mavlink_param_value_t,param_value,2,param_count,252,param_index,21,param_id,BATT_CURR_PIN,param_type,2,,Len,33
11/14/2012 10:33:29 AM,FE,19,48, 1, 1,16,mavlink_param_value_t,param_value,0,param_count,252,param_index,22,param_id,WP_MODE,param_type,2,,Len,33
11/14/2012 10:33:29 AM,FE,19,49, 1, 1,16,mavlink_param_value_t,param_value,1,param_count,252,param_index,23,param_id,WP_TOTAL,param_type,2,,Len,33
11/14/2012 10:33:29 AM,FE,19,4A, 1, 1,16,mavlink_param_value_t,param_value,0,param_count,252,param_index,24,param_id,WP_INDEX,param_type,2,,Len,33
11/14/2012 10:33:29 AM,FE,19,4B, 1, 1,16,mavlink_param_value_t,param_value,0,param_count,252,param_index,25,param_id,WP_MUST_INDEX,param_type,2,,Len,33
11/14/2012 10:33:29 AM,FE,19,4C, 1, 1,16,mavlink_param_value_t,param_value,2,param_count,252,param_index,26,param_id,WP_RADIUS,param_type,4,,Len,33
11/14/2012 10:33:30 AM,FE,19,4D, 1, 1,16,mavlink_param_value_t,param_value,10,param_count,252,param_index,27,param_id,WP_LOITER_RAD,param_type,4,,Len,33
11/14/2012 10:33:30 AM,FE,19,4E, 1, 1,16,mavlink_param_value_t,param_value,500,param_count,252,param_index,28,param_id,WP_SPEED_MAX,param_type,4,,Len,33
11/14/2012 10:33:30 AM,FE,19,4F, 1, 1,16,mavlink_param_value_t,param_value,0.2,param_count,252,param_index,29,param_id,XTRK_GAIN_SC,param_type,9,,Len,33
11/14/2012 10:33:30 AM,FE,19,50, 1, 1,16,mavlink_param_value_t,param_value,5000,param_count,252,param_index,30,param_id,AUTO_LAND,param_type,6,,Len,33
11/14/2012 10:33:30 AM,FE,19,51, 1, 1,16,mavlink_param_value_t,param_value,130,param_count,252,param_index,31,param_id,THR_MIN,param_type,4,,Len,33
11/14/2012 10:33:30 AM,FE,19,52, 1, 1,16,mavlink_param_value_t,param_value,1000,param_count,252,param_index,32,param_id,THR_MAX,param_type,4,,Len,33
11/14/2012 10:33:30 AM,FE,19,53, 1, 1,16,mavlink_param_value_t,param_value,0,param_count,252,param_index,33,param_id,THR_FAILSAFE,param_type,2,,Len,33
11/14/2012 10:33:30 AM,FE,19,54, 1, 1,16,mavlink_param_value_t,param_value,2,param_count,252,param_index,34,param_id,THR_FS_ACTION,param_type,2,,Len,33
11/14/2012 10:33:30 AM,FE,19,55, 1, 1,16,mavlink_param_value_t,param_value,975,param_count,252,param_index,35,param_id,THR_FS_VALUE,param_type,4,,Len,33
11/14/2012 10:33:30 AM,FE,19,56, 1, 1,16,mavlink_param_value_t,param_value,172,param_count,252,param_index,36,param_id,TRIM_THROTTLE,param_type,4,,Len,33
11/14/2012 10:33:30 AM,FE,19,57, 1, 1,16,mavlink_param_value_t,param_value,0,param_count,252,param_index,37,param_id,FLTMODE1,param_type,2,,Len,33
11/14/2012 10:33:30 AM,FE,19,58, 1, 1,16,mavlink_param_value_t,param_value,0,param_count,252,param_index,38,param_id,FLTMODE2,param_type,2,,Len,33
11/14/2012 10:33:30 AM,FE,19,59, 1, 1,16,mavlink_param_value_t,param_value,0,param_count,252,param_index,39,param_id,FLTMODE3,param_type,2,,Len,33
11/14/2012 10:33:30 AM,FE,19,5A, 1, 1,16,mavlink_param_value_t,param_value,2,param_count,252,param_index,40,param_id,FLTMODE4,param_type,2,,Len,33
11/14/2012 10:33:30 AM,FE,19,5B, 1, 1,16,mavlink_param_value_t,param_value,0,param_count,252,param_index,41,param_id,FLTMODE5,param_type,2,,Len,33
11/14/2012 10:33:30 AM,FE,19,5C, 1, 1,16,mavlink_param_value_t,param_value,0,param_count,252,param_index,42,param_id,FLTMODE6,param_type,2,,Len,33
11/14/2012 10:33:30 AM,FE, 9,5D, 1, 1, 0,mavlink_heartbeat_t,custom_mode,0,type,2,autopilot,3,base_mode,81,system_status,4,mavlink_version,3,,Len,17
11/14/2012 10:33:30 AM,FE,19,5E, 1, 1,16,mavlink_param_value_t,param_value,62,param_count,252,param_index,43,param_id,SIMPLE,param_type,2,,Len,33
11/14/2012 10:33:30 AM,FE,19,5F, 1, 1,16,mavlink_param_value_t,param_value,382,param_count,252,param_index,44,param_id,LOG_BITMASK,param_type,4,,Len,33
11/14/2012 10:33:30 AM,FE,19,60, 1, 1,16,mavlink_param_value_t,param_value,0,param_count,252,param_index,45,param_id,LOG_LASTFILE,param_type,4,,Len,33
11/14/2012 10:33:30 AM,FE,19,61, 1, 1,16,mavlink_param_value_t,param_value,1,param_count,252,param_index,46,param_id,TOY_RATE,param_type,2,,Len,33
11/14/2012 10:33:30 AM,FE,19,62, 1, 1,16,mavlink_param_value_t,param_value,0,param_count,252,param_index,47,param_id,ESC,param_type,2,,Len,33
11/14/2012 10:33:30 AM,FE,19,63, 1, 1,16,mavlink_param_value_t,param_value,0,param_count,252,param_index,48,param_id,TUNE,param_type,2,,Len,33
11/14/2012 10:33:30 AM,FE,19,64, 1, 1,16,mavlink_param_value_t,param_value,0,param_count,252,param_index,49,param_id,TUNE_LOW,param_type,4,,Len,33
11/14/2012 10:33:30 AM,FE,19,65, 1, 1,16,mavlink_param_value_t,param_value,1000,param_count,252,param_index,50,param_id,TUNE_HIGH,param_type,4,,Len,33
11/14/2012 10:33:31 AM,FE,19,66, 1, 1,16,mavlink_param_value_t,param_value,1,param_count,252,param_index,51,param_id,FRAME,param_type,2,,Len,33
11/14/2012 10:33:31 AM,FE,19,67, 1, 1,16,mavlink_param_value_t,param_value,7,param_count,252,param_index,52,param_id,CH7_OPT,param_type,2,,Len,33
11/14/2012 10:33:31 AM,FE,19,68, 1, 1,16,mavlink_param_value_t,param_value,30,param_count,252,param_index,53,param_id,AUTO_SLEW,param_type,4,,Len,33
11/14/2012 10:33:31 AM,FE,19,69, 1, 1,16,mavlink_param_value_t,param_value,0,param_count,252,param_index,54,param_id,CAM_TRIGG_TYPE,param_type,2,,Len,33
11/14/2012 10:33:31 AM,FE,19,6A, 1, 1,16,mavlink_param_value_t,param_value,1119,param_count,252,param_index,55,param_id,RC1_MIN,param_type,4,,Len,33
11/14/2012 10:33:31 AM,FE,19,6B, 1, 1,16,mavlink_param_value_t,param_value,1529,param_count,252,param_index,56,param_id,RC1_TRIM,param_type,4,,Len,33
11/14/2012 10:33:31 AM,FE,19,6C, 1, 1,16,mavlink_param_value_t,param_value,1924,param_count,252,param_index,57,param_id,RC1_MAX,param_type,4,,Len,33
11/14/2012 10:33:31 AM,FE,19,6D, 1, 1,16,mavlink_param_value_t,param_value,1,param_count,252,param_index,58,param_id,RC1_REV,param_type,2,,Len,33
11/14/2012 10:33:31 AM,FE,19,6E, 1, 1,16,mavlink_param_value_t,param_value,30,param_count,252,param_index,59,param_id,RC1_DZ,param_type,4,,Len,33
11/14/2012 10:33:31 AM,FE,19,6F, 1, 1,16,mavlink_param_value_t,param_value,1126,param_count,252,param_index,60,param_id,RC2_MIN,param_type,4,,Len,33
11/14/2012 10:33:31 AM,FE,19,70, 1, 1,16,mavlink_param_value_t,param_value,1527,param_count,252,param_index,61,param_id,RC2_TRIM,param_type,4,,Len,33
11/14/2012 10:33:31 AM,FE,19,71, 1, 1,16,mavlink_param_value_t,param_value,1923,param_count,252,param_index,62,param_id,RC2_MAX,param_type,4,,Len,33
11/14/2012 10:33:31 AM,FE,19,72, 1, 1,16,mavlink_param_value_t,param_value,1,param_count,252,param_index,63,param_id,RC2_REV,param_type,2,,Len,33
11/14/2012 10:33:31 AM,FE,19,73, 1, 1,16,mavlink_param_value_t,param_value,30,param_count,252,param_index,64,param_id,RC2_DZ,param_type,4,,Len,33
11/14/2012 10:33:31 AM,FE,19,74, 1, 1,16,mavlink_param_value_t,param_value,1126,param_count,252,param_index,65,param_id,RC3_MIN,param_type,4,,Len,33
11/14/2012 10:33:31 AM,FE,19,75, 1, 1,16,mavlink_param_value_t,param_value,1129,param_count,252,param_index,66,param_id,RC3_TRIM,param_type,4,,Len,33
11/14/2012 10:33:31 AM,FE,19,76, 1, 1,16,mavlink_param_value_t,param_value,1924,param_count,252,param_index,67,param_id,RC3_MAX,param_type,4,,Len,33
11/14/2012 10:33:31 AM,FE, 9,77, 1, 1, 0,mavlink_heartbeat_t,custom_mode,0,type,2,autopilot,3,base_mode,81,system_status,4,mavlink_version,3,,Len,17
11/14/2012 10:33:31 AM,FE,19,78, 1, 1,16,mavlink_param_value_t,param_value,1,param_count,252,param_index,68,param_id,RC3_REV,param_type,2,,Len,33
11/14/2012 10:33:31 AM,FE,19,79, 1, 1,16,mavlink_param_value_t,param_value,30,param_count,252,param_index,69,param_id,RC3_DZ,param_type,4,,Len,33
11/14/2012 10:33:31 AM,FE,19,7A, 1, 1,16,mavlink_param_value_t,param_value,1138,param_count,252,param_index,70,param_id,RC4_MIN,param_type,4,,Len,33
11/14/2012 10:33:31 AM,FE,19,7B, 1, 1,16,mavlink_param_value_t,param_value,1522,param_count,252,param_index,71,param_id,RC4_TRIM,param_type,4,,Len,33
11/14/2012 10:33:31 AM,FE,19,7C, 1, 1,16,mavlink_param_value_t,param_value,1935,param_count,252,param_index,72,param_id,RC4_MAX,param_type,4,,Len,33
11/14/2012 10:33:31 AM,FE,19,7D, 1, 1,16,mavlink_param_value_t,param_value,1,param_count,252,param_index,73,param_id,RC4_REV,param_type,2,,Len,33
11/14/2012 10:33:31 AM,FE,19,7E, 1, 1,16,mavlink_param_value_t,param_value,40,param_count,252,param_index,74,param_id,RC4_DZ,param_type,4,,Len,33
11/14/2012 10:33:31 AM,FE,19,7F, 1, 1,16,mavlink_param_value_t,param_value,1112,param_count,252,param_index,75,param_id,RC5_MIN,param_type,4,,Len,33
11/14/2012 10:33:32 AM,FE,19,80, 1, 1,16,mavlink_param_value_t,param_value,1525,param_count,252,param_index,76,param_id,RC5_TRIM,param_type,4,,Len,33
11/14/2012 10:33:32 AM,FE,19,81, 1, 1,16,mavlink_param_value_t,param_value,1936,param_count,252,param_index,77,param_id,RC5_MAX,param_type,4,,Len,33
11/14/2012 10:33:32 AM,FE,19,82, 1, 1,16,mavlink_param_value_t,param_value,1,param_count,252,param_index,78,param_id,RC5_REV,param_type,2,,Len,33
11/14/2012 10:33:32 AM,FE,19,83, 1, 1,16,mavlink_param_value_t,param_value,0,param_count,252,param_index,79,param_id,RC5_DZ,param_type,4,,Len,33
11/14/2012 10:33:32 AM,FE,19,84, 1, 1,16,mavlink_param_value_t,param_value,0,param_count,252,param_index,80,param_id,RC5_FUNCTION,param_type,2,,Len,33
11/14/2012 10:33:32 AM,FE,19,85, 1, 1,16,mavlink_param_value_t,param_value,1126,param_count,252,param_index,81,param_id,RC6_MIN,param_type,4,,Len,33
11/14/2012 10:33:32 AM,FE,19,86, 1, 1,16,mavlink_param_value_t,param_value,1543,param_count,252,param_index,82,param_id,RC6_TRIM,param_type,4,,Len,33
11/14/2012 10:33:32 AM,FE,19,87, 1, 1,16,mavlink_param_value_t,param_value,1924,param_count,252,param_index,83,param_id,RC6_MAX,param_type,4,,Len,33
11/14/2012 10:33:32 AM,FE,19,88, 1, 1,16,mavlink_param_value_t,param_value,1,param_count,252,param_index,84,param_id,RC6_REV,param_type,2,,Len,33
11/14/2012 10:33:32 AM,FE,19,89, 1, 1,16,mavlink_param_value_t,param_value,0,param_count,252,param_index,85,param_id,RC6_DZ,param_type,4,,Len,33
11/14/2012 10:33:32 AM,FE,19,8A, 1, 1,16,mavlink_param_value_t,param_value,0,param_count,252,param_index,86,param_id,RC6_FUNCTION,param_type,2,,Len,33
11/14/2012 10:33:32 AM,FE,19,8B, 1, 1,16,mavlink_param_value_t,param_value,1495,param_count,252,param_index,87,param_id,RC7_MIN,param_type,4,,Len,33
11/14/2012 10:33:32 AM,FE,19,8C, 1, 1,16,mavlink_param_value_t,param_value,1496,param_count,252,param_index,88,param_id,RC7_TRIM,param_type,4,,Len,33
11/14/2012 10:33:32 AM,FE,19,8D, 1, 1,16,mavlink_param_value_t,param_value,1496,param_count,252,param_index,89,param_id,RC7_MAX,param_type,4,,Len,33
11/14/2012 10:33:32 AM,FE,19,8E, 1, 1,16,mavlink_param_value_t,param_value,1,param_count,252,param_index,90,param_id,RC7_REV,param_type,2,,Len,33
11/14/2012 10:33:32 AM,FE,19,8F, 1, 1,16,mavlink_param_value_t,param_value,0,param_count,252,param_index,91,param_id,RC7_DZ,param_type,4,,Len,33
11/14/2012 10:33:32 AM,FE,19,90, 1, 1,16,mavlink_param_value_t,param_value,0,param_count,252,param_index,92,param_id,RC7_FUNCTION,param_type,2,,Len,33
11/14/2012 10:33:32 AM,FE, 9,91, 1, 1, 0,mavlink_heartbeat_t,custom_mode,0,type,2,autopilot,3,base_mode,81,system_status,4,mavlink_version,3,,Len,17
11/14/2012 10:33:32 AM,FE,19,92, 1, 1,16,mavlink_param_value_t,param_value,1495,param_count,252,param_index,93,param_id,RC8_MIN,param_type,4,,Len,33
11/14/2012 10:33:32 AM,FE,19,93, 1, 1,16,mavlink_param_value_t,param_value,1496,param_count,252,param_index,94,param_id,RC8_TRIM,param_type,4,,Len,33
11/14/2012 10:33:32 AM,FE,19,94, 1, 1,16,mavlink_param_value_t,param_value,1496,param_count,252,param_index,95,param_id,RC8_MAX,param_type,4,,Len,33
11/14/2012 10:33:32 AM,FE,19,95, 1, 1,16,mavlink_param_value_t,param_value,1,param_count,252,param_index,96,param_id,RC8_REV,param_type,2,,Len,33
11/14/2012 10:33:32 AM,FE,19,96, 1, 1,16,mavlink_param_value_t,param_value,0,param_count,252,param_index,97,param_id,RC8_DZ,param_type,4,,Len,33
11/14/2012 10:33:32 AM,FE,19,97, 1, 1,16,mavlink_param_value_t,param_value,0,param_count,252,param_index,98,param_id,RC8_FUNCTION,param_type,2,,Len,33
11/14/2012 10:33:32 AM,FE,19,98, 1, 1,16,mavlink_param_value_t,param_value,1100,param_count,252,param_index,99,param_id,RC10_MIN,param_type,4,,Len,33
11/14/2012 10:33:32 AM,FE,19,99, 1, 1,16,mavlink_param_value_t,param_value,1500,param_count,252,param_index,100,param_id,RC10_TRIM,param_type,4,,Len,33
11/14/2012 10:33:32 AM,FE,19,9A, 1, 1,16,mavlink_param_value_t,param_value,1900,param_count,252,param_index,101,param_id,RC10_MAX,param_type,4,,Len,33
11/14/2012 10:33:33 AM,FE,19,9B, 1, 1,16,mavlink_param_value_t,param_value,1,param_count,252,param_index,102,param_id,RC10_REV,param_type,2,,Len,33
11/14/2012 10:33:33 AM,FE,19,9C, 1, 1,16,mavlink_param_value_t,param_value,0,param_count,252,param_index,103,param_id,RC10_DZ,param_type,4,,Len,33
11/14/2012 10:33:33 AM,FE,19,9D, 1, 1,16,mavlink_param_value_t,param_value,0,param_count,252,param_index,104,param_id,RC10_FUNCTION,param_type,2,,Len,33
11/14/2012 10:33:33 AM,FE,19,9E, 1, 1,16,mavlink_param_value_t,param_value,1100,param_count,252,param_index,105,param_id,RC11_MIN,param_type,4,,Len,33
11/14/2012 10:33:33 AM,FE,19,9F, 1, 1,16,mavlink_param_value_t,param_value,1500,param_count,252,param_index,106,param_id,RC11_TRIM,param_type,4,,Len,33
11/14/2012 10:33:33 AM,FE,19,A0, 1, 1,16,mavlink_param_value_t,param_value,1900,param_count,252,param_index,107,param_id,RC11_MAX,param_type,4,,Len,33
11/14/2012 10:33:33 AM,FE,19,A1, 1, 1,16,mavlink_param_value_t,param_value,1,param_count,252,param_index,108,param_id,RC11_REV,param_type,2,,Len,33
11/14/2012 10:33:33 AM,FE,19,A2, 1, 1,16,mavlink_param_value_t,param_value,0,param_count,252,param_index,109,param_id,RC11_DZ,param_type,4,,Len,33
11/14/2012 10:33:33 AM,FE,19,A3, 1, 1,16,mavlink_param_value_t,param_value,0,param_count,252,param_index,110,param_id,RC11_FUNCTION,param_type,2,,Len,33
11/14/2012 10:33:33 AM,FE,19,A4, 1, 1,16,mavlink_param_value_t,param_value,490,param_count,252,param_index,111,param_id,RC_SPEED,param_type,4,,Len,33
11/14/2012 10:33:33 AM,FE,19,A5, 1, 1,16,mavlink_param_value_t,param_value,0,param_count,252,param_index,112,param_id,STAB_D,param_type,9,,Len,33
11/14/2012 10:33:33 AM,FE,19,A6, 1, 1,16,mavlink_param_value_t,param_value,0.5,param_count,252,param_index,113,param_id,STAB_D_S,param_type,9,,Len,33
11/14/2012 10:33:33 AM,FE,19,A7, 1, 1,16,mavlink_param_value_t,param_value,4.5,param_count,252,param_index,114,param_id,ACRO_P,param_type,9,,Len,33
11/14/2012 10:33:33 AM,FE,19,A8, 1, 1,16,mavlink_param_value_t,param_value,0.02,param_count,252,param_index,115,param_id,AXIS_P,param_type,9,,Len,33
11/14/2012 10:33:33 AM,FE,19,A9, 1, 1,16,mavlink_param_value_t,param_value,1,param_count,252,param_index,116,param_id,AXIS_ENABLE,param_type,2,,Len,33
11/14/2012 10:33:33 AM,FE,19,AA, 1, 1,16,mavlink_param_value_t,param_value,9,param_count,252,param_index,117,param_id,LED_MODE,param_type,2,,Len,33
11/14/2012 10:33:33 AM,FE, 9,AB, 1, 1, 0,mavlink_heartbeat_t,custom_mode,0,type,2,autopilot,3,base_mode,81,system_status,4,mavlink_version,3,,Len,17
11/14/2012 10:33:33 AM,FE,19,AC, 1, 1,16,mavlink_param_value_t,param_value,0.175,param_count,252,param_index,118,param_id,RATE_RLL_P,param_type,9,,Len,33
11/14/2012 10:33:33 AM,FE,19,AD, 1, 1,16,mavlink_param_value_t,param_value,0.01,param_count,252,param_index,119,param_id,RATE_RLL_I,param_type,9,,Len,33
11/14/2012 10:33:33 AM,FE,19,AE, 1, 1,16,mavlink_param_value_t,param_value,0.004,param_count,252,param_index,120,param_id,RATE_RLL_D,param_type,9,,Len,33
11/14/2012 10:33:33 AM,FE,19,AF, 1, 1,16,mavlink_param_value_t,param_value,500,param_count,252,param_index,121,param_id,RATE_RLL_IMAX,param_type,4,,Len,33
11/14/2012 10:33:33 AM,FE,19,B0, 1, 1,16,mavlink_param_value_t,param_value,0.175,param_count,252,param_index,122,param_id,RATE_PIT_P,param_type,9,,Len,33
11/14/2012 10:33:33 AM,FE,19,B1, 1, 1,16,mavlink_param_value_t,param_value,0.01,param_count,252,param_index,123,param_id,RATE_PIT_I,param_type,9,,Len,33
11/14/2012 10:33:33 AM,FE,19,B2, 1, 1,16,mavlink_param_value_t,param_value,0.004,param_count,252,param_index,124,param_id,RATE_PIT_D,param_type,9,,Len,33
11/14/2012 10:33:33 AM,FE,19,B3, 1, 1,16,mavlink_param_value_t,param_value,500,param_count,252,param_index,125,param_id,RATE_PIT_IMAX,param_type,4,,Len,33
11/14/2012 10:33:33 AM,FE,19,B4, 1, 1,16,mavlink_param_value_t,param_value,0.25,param_count,252,param_index,126,param_id,RATE_YAW_P,param_type,9,,Len,33
11/14/2012 10:33:34 AM,FE,19,B5, 1, 1,16,mavlink_param_value_t,param_value,0.015,param_count,252,param_index,127,param_id,RATE_YAW_I,param_type,9,,Len,33
11/14/2012 10:33:34 AM,FE,19,B6, 1, 1,16,mavlink_param_value_t,param_value,0,param_count,252,param_index,128,param_id,RATE_YAW_D,param_type,9,,Len,33
11/14/2012 10:33:34 AM,FE,19,B7, 1, 1,16,mavlink_param_value_t,param_value,800,param_count,252,param_index,129,param_id,RATE_YAW_IMAX,param_type,4,,Len,33
11/14/2012 10:33:34 AM,FE,19,B8, 1, 1,16,mavlink_param_value_t,param_value,5,param_count,252,param_index,130,param_id,LOITER_LAT_P,param_type,9,,Len,33
11/14/2012 10:33:34 AM,FE,19,B9, 1, 1,16,mavlink_param_value_t,param_value,0.04,param_count,252,param_index,131,param_id,LOITER_LAT_I,param_type,9,,Len,33
11/14/2012 10:33:34 AM,FE,19,BA, 1, 1,16,mavlink_param_value_t,param_value,0.4,param_count,252,param_index,132,param_id,LOITER_LAT_D,param_type,9,,Len,33
11/14/2012 10:33:34 AM,FE,19,BB, 1, 1,16,mavlink_param_value_t,param_value,3000,param_count,252,param_index,133,param_id,LOITER_LAT_IMAX,param_type,4,,Len,33
11/14/2012 10:33:34 AM,FE,19,BC, 1, 1,16,mavlink_param_value_t,param_value,5,param_count,252,param_index,134,param_id,LOITER_LON_P,param_type,9,,Len,33
11/14/2012 10:33:34 AM,FE,19,BD, 1, 1,16,mavlink_param_value_t,param_value,0.04,param_count,252,param_index,135,param_id,LOITER_LON_I,param_type,9,,Len,33
11/14/2012 10:33:34 AM,FE,19,BE, 1, 1,16,mavlink_param_value_t,param_value,0.4,param_count,252,param_index,136,param_id,LOITER_LON_D,param_type,9,,Len,33
11/14/2012 10:33:34 AM,FE,19,BF, 1, 1,16,mavlink_param_value_t,param_value,3000,param_count,252,param_index,137,param_id,LOITER_LON_IMAX,param_type,4,,Len,33
11/14/2012 10:33:34 AM,FE,19,C0, 1, 1,16,mavlink_param_value_t,param_value,2.4,param_count,252,param_index,138,param_id,NAV_LAT_P,param_type,9,,Len,33
11/14/2012 10:33:34 AM,FE,19,C1, 1, 1,16,mavlink_param_value_t,param_value,0.17,param_count,252,param_index,139,param_id,NAV_LAT_I,param_type,9,,Len,33
11/14/2012 10:33:34 AM,FE,19,C2, 1, 1,16,mavlink_param_value_t,param_value,0,param_count,252,param_index,140,param_id,NAV_LAT_D,param_type,9,,Len,33
11/14/2012 10:33:34 AM,FE,19,C3, 1, 1,16,mavlink_param_value_t,param_value,1800,param_count,252,param_index,141,param_id,NAV_LAT_IMAX,param_type,4,,Len,33
11/14/2012 10:33:34 AM,FE,19,C4, 1, 1,16,mavlink_param_value_t,param_value,2.4,param_count,252,param_index,142,param_id,NAV_LON_P,param_type,9,,Len,33
11/14/2012 10:33:34 AM,FE, 9,C5, 1, 1, 0,mavlink_heartbeat_t,custom_mode,0,type,2,autopilot,3,base_mode,81,system_status,4,mavlink_version,3,,Len,17
11/14/2012 10:33:34 AM,FE,19,C6, 1, 1,16,mavlink_param_value_t,param_value,0.17,param_count,252,param_index,143,param_id,NAV_LON_I,param_type,9,,Len,33
11/14/2012 10:33:34 AM,FE,19,C7, 1, 1,16,mavlink_param_value_t,param_value,0,param_count,252,param_index,144,param_id,NAV_LON_D,param_type,9,,Len,33
11/14/2012 10:33:34 AM,FE,19,C8, 1, 1,16,mavlink_param_value_t,param_value,1800,param_count,252,param_index,145,param_id,NAV_LON_IMAX,param_type,4,,Len,33
11/14/2012 10:33:34 AM,FE,19,C9, 1, 1,16,mavlink_param_value_t,param_value,0.3,param_count,252,param_index,146,param_id,THR_RATE_P,param_type,9,,Len,33
11/14/2012 10:33:34 AM,FE,19,CA, 1, 1,16,mavlink_param_value_t,param_value,0.03,param_count,252,param_index,147,param_id,THR_RATE_I,param_type,9,,Len,33
11/14/2012 10:33:34 AM,FE,19,CB, 1, 1,16,mavlink_param_value_t,param_value,0,param_count,252,param_index,148,param_id,THR_RATE_D,param_type,9,,Len,33
11/14/2012 10:33:34 AM,FE,19,CC, 1, 1,16,mavlink_param_value_t,param_value,300,param_count,252,param_index,149,param_id,THR_RATE_IMAX,param_type,4,,Len,33
11/14/2012 10:33:34 AM,FE,19,CD, 1, 1,16,mavlink_param_value_t,param_value,2.5,param_count,252,param_index,150,param_id,OF_RLL_P,param_type,9,,Len,33
11/14/2012 10:33:34 AM,FE,19,CE, 1, 1,16,mavlink_param_value_t,param_value,0.5,param_count,252,param_index,151,param_id,OF_RLL_I,param_type,9,,Len,33
11/14/2012 10:33:35 AM,FE,19,CF, 1, 1,16,mavlink_param_value_t,param_value,0.12,param_count,252,param_index,152,param_id,OF_RLL_D,param_type,9,,Len,33
11/14/2012 10:33:35 AM,FE,19,D0, 1, 1,16,mavlink_param_value_t,param_value,100,param_count,252,param_index,153,param_id,OF_RLL_IMAX,param_type,4,,Len,33
11/14/2012 10:33:35 AM,FE,19,D1, 1, 1,16,mavlink_param_value_t,param_value,2.5,param_count,252,param_index,154,param_id,OF_PIT_P,param_type,9,,Len,33
11/14/2012 10:33:35 AM,FE,19,D2, 1, 1,16,mavlink_param_value_t,param_value,0.5,param_count,252,param_index,155,param_id,OF_PIT_I,param_type,9,,Len,33
11/14/2012 10:33:35 AM,FE,19,D3, 1, 1,16,mavlink_param_value_t,param_value,0.12,param_count,252,param_index,156,param_id,OF_PIT_D,param_type,9,,Len,33
11/14/2012 10:33:35 AM,FE,19,D4, 1, 1,16,mavlink_param_value_t,param_value,100,param_count,252,param_index,157,param_id,OF_PIT_IMAX,param_type,4,,Len,33
11/14/2012 10:33:35 AM,FE,19,D5, 1, 1,16,mavlink_param_value_t,param_value,4.5,param_count,252,param_index,158,param_id,STB_RLL_P,param_type,9,,Len,33
11/14/2012 10:33:35 AM,FE,19,D6, 1, 1,16,mavlink_param_value_t,param_value,0,param_count,252,param_index,159,param_id,STB_RLL_I,param_type,9,,Len,33
11/14/2012 10:33:35 AM,FE,19,D7, 1, 1,16,mavlink_param_value_t,param_value,800,param_count,252,param_index,160,param_id,STB_RLL_IMAX,param_type,4,,Len,33
11/14/2012 10:33:35 AM,FE,19,D8, 1, 1,16,mavlink_param_value_t,param_value,4.5,param_count,252,param_index,161,param_id,STB_PIT_P,param_type,9,,Len,33
11/14/2012 10:33:35 AM,FE,19,D9, 1, 1,16,mavlink_param_value_t,param_value,0,param_count,252,param_index,162,param_id,STB_PIT_I,param_type,9,,Len,33
11/14/2012 10:33:35 AM,FE,19,DA, 1, 1,16,mavlink_param_value_t,param_value,800,param_count,252,param_index,163,param_id,STB_PIT_IMAX,param_type,4,,Len,33
11/14/2012 10:33:35 AM,FE,19,DB, 1, 1,16,mavlink_param_value_t,param_value,4.5,param_count,252,param_index,164,param_id,STB_YAW_P,param_type,9,,Len,33
11/14/2012 10:33:35 AM,FE,19,DC, 1, 1,16,mavlink_param_value_t,param_value,0,param_count,252,param_index,165,param_id,STB_YAW_I,param_type,9,,Len,33
11/14/2012 10:33:35 AM,FE,19,DD, 1, 1,16,mavlink_param_value_t,param_value,800,param_count,252,param_index,166,param_id,STB_YAW_IMAX,param_type,4,,Len,33
11/14/2012 10:33:35 AM,FE,19,DE, 1, 1,16,mavlink_param_value_t,param_value,0.3,param_count,252,param_index,167,param_id,THR_ALT_P,param_type,9,,Len,33
11/14/2012 10:33:35 AM,FE, 9,DF, 1, 1, 0,mavlink_heartbeat_t,custom_mode,0,type,2,autopilot,3,base_mode,81,system_status,4,mavlink_version,3,,Len,17
11/14/2012 10:33:35 AM,FE,19,E0, 1, 1,16,mavlink_param_value_t,param_value,0.04,param_count,252,param_index,168,param_id,THR_ALT_I,param_type,9,,Len,33
11/14/2012 10:33:35 AM,FE,19,E1, 1, 1,16,mavlink_param_value_t,param_value,300,param_count,252,param_index,169,param_id,THR_ALT_IMAX,param_type,4,,Len,33
11/14/2012 10:33:35 AM,FE,19,E2, 1, 1,16,mavlink_param_value_t,param_value,0.2,param_count,252,param_index,170,param_id,HLD_LAT_P,param_type,9,,Len,33
11/14/2012 10:33:35 AM,FE,19,E3, 1, 1,16,mavlink_param_value_t,param_value,0,param_count,252,param_index,171,param_id,HLD_LAT_I,param_type,9,,Len,33
11/14/2012 10:33:35 AM,FE,19,E4, 1, 1,16,mavlink_param_value_t,param_value,3000,param_count,252,param_index,172,param_id,HLD_LAT_IMAX,param_type,4,,Len,33
11/14/2012 10:33:35 AM,FE,19,E5, 1, 1,16,mavlink_param_value_t,param_value,0.2,param_count,252,param_index,173,param_id,HLD_LON_P,param_type,9,,Len,33
11/14/2012 10:33:35 AM,FE,19,E6, 1, 1,16,mavlink_param_value_t,param_value,0,param_count,252,param_index,174,param_id,HLD_LON_I,param_type,9,,Len,33
11/14/2012 10:33:35 AM,FE,19,E7, 1, 1,16,mavlink_param_value_t,param_value,3000,param_count,252,param_index,175,param_id,HLD_LON_IMAX,param_type,4,,Len,33
11/14/2012 10:33:36 AM,FE,19,E8, 1, 1,16,mavlink_param_value_t,param_value,29.31798,param_count,252,param_index,176,param_id,COMPASS_OFS_X,param_type,9,,Len,33
11/14/2012 10:33:36 AM,FE,19,E9, 1, 1,16,mavlink_param_value_t,param_value,11.90923,param_count,252,param_index,177,param_id,COMPASS_OFS_Y,param_type,9,,Len,33
11/14/2012 10:33:36 AM,FE,19,EA, 1, 1,16,mavlink_param_value_t,param_value,2.639895,param_count,252,param_index,178,param_id,COMPASS_OFS_Z,param_type,9,,Len,33
11/14/2012 10:33:36 AM,FE,19,EB, 1, 1,16,mavlink_param_value_t,param_value,-0.1542217,param_count,252,param_index,179,param_id,COMPASS_DEC,param_type,9,,Len,33
11/14/2012 10:33:36 AM,FE,19,EC, 1, 1,16,mavlink_param_value_t,param_value,1,param_count,252,param_index,180,param_id,COMPASS_LEARN,param_type,2,,Len,33
11/14/2012 10:33:36 AM,FE,19,ED, 1, 1,16,mavlink_param_value_t,param_value,1,param_count,252,param_index,181,param_id,COMPASS_USE,param_type,2,,Len,33
11/14/2012 10:33:36 AM,FE,19,EE, 1, 1,16,mavlink_param_value_t,param_value,1,param_count,252,param_index,182,param_id,COMPASS_AUTODEC,param_type,2,,Len,33
11/14/2012 10:33:36 AM,FE,19,EF, 1, 1,16,mavlink_param_value_t,param_value,2,param_count,252,param_index,183,param_id,SR0_RAW_SENS,param_type,4,,Len,33
11/14/2012 10:33:36 AM,FE,19,F0, 1, 1,16,mavlink_param_value_t,param_value,2,param_count,252,param_index,184,param_id,SR0_EXT_STAT,param_type,4,,Len,33
11/14/2012 10:33:36 AM,FE,19,F1, 1, 1,16,mavlink_param_value_t,param_value,2,param_count,252,param_index,185,param_id,SR0_RC_CHAN,param_type,4,,Len,33
11/14/2012 10:33:36 AM,FE,19,F2, 1, 1,16,mavlink_param_value_t,param_value,0,param_count,252,param_index,186,param_id,SR0_RAW_CTRL,param_type,4,,Len,33
11/14/2012 10:33:36 AM,FE,19,F3, 1, 1,16,mavlink_param_value_t,param_value,3,param_count,252,param_index,187,param_id,SR0_POSITION,param_type,4,,Len,33
11/14/2012 10:33:36 AM,FE,19,F4, 1, 1,16,mavlink_param_value_t,param_value,10,param_count,252,param_index,188,param_id,SR0_EXTRA1,param_type,4,,Len,33
11/14/2012 10:33:36 AM,FE,19,F5, 1, 1,16,mavlink_param_value_t,param_value,10,param_count,252,param_index,189,param_id,SR0_EXTRA2,param_type,4,,Len,33
11/14/2012 10:33:36 AM,FE,19,F6, 1, 1,16,mavlink_param_value_t,param_value,2,param_count,252,param_index,190,param_id,SR0_EXTRA3,param_type,4,,Len,33
11/14/2012 10:33:36 AM,FE,19,F7, 1, 1,16,mavlink_param_value_t,param_value,50,param_count,252,param_index,191,param_id,SR0_PARAMS,param_type,4,,Len,33
11/14/2012 10:33:36 AM,FE,19,F8, 1, 1,16,mavlink_param_value_t,param_value,0,param_count,252,param_index,192,param_id,SR3_RAW_SENS,param_type,4,,Len,33
11/14/2012 10:33:36 AM,FE, 9,F9, 1, 1, 0,mavlink_heartbeat_t,custom_mode,0,type,2,autopilot,3,base_mode,81,system_status,4,mavlink_version,3,,Len,17
11/14/2012 10:33:36 AM,FE,19,FA, 1, 1,16,mavlink_param_value_t,param_value,0,param_count,252,param_index,193,param_id,SR3_EXT_STAT,param_type,4,,Len,33
11/14/2012 10:33:36 AM,FE,19,FB, 1, 1,16,mavlink_param_value_t,param_value,0,param_count,252,param_index,194,param_id,SR3_RC_CHAN,param_type,4,,Len,33
11/14/2012 10:33:36 AM,FE,19,FC, 1, 1,16,mavlink_param_value_t,param_value,0,param_count,252,param_index,195,param_id,SR3_RAW_CTRL,param_type,4,,Len,33
11/14/2012 10:33:36 AM,FE,19,FD, 1, 1,16,mavlink_param_value_t,param_value,0,param_count,252,param_index,196,param_id,SR3_POSITION,param_type,4,,Len,33
11/14/2012 10:33:36 AM,FE,19,FE, 1, 1,16,mavlink_param_value_t,param_value,0,param_count,252,param_index,197,param_id,SR3_EXTRA1,param_type,4,,Len,33
11/14/2012 10:33:36 AM,FE,19,FF, 1, 1,16,mavlink_param_value_t,param_value,0,param_count,252,param_index,198,param_id,SR3_EXTRA2,param_type,4,,Len,33
11/14/2012 10:33:36 AM,FE,19, 0, 1, 1,16,mavlink_param_value_t,param_value,0,param_count,252,param_index,199,param_id,SR3_EXTRA3,param_type,4,,Len,33
11/14/2012 10:33:37 AM,FE,19, 1, 1, 1,16,mavlink_param_value_t,param_value,0,param_count,252,param_index,200,param_id,SR3_PARAMS,param_type,4,,Len,33
11/14/2012 10:33:37 AM,FE,19, 2, 1, 1,16,mavlink_param_value_t,param_value,88,param_count,252,param_index,201,param_id,IMU_PRODUCT_ID,param_type,4,,Len,33
11/14/2012 10:33:37 AM,FE,19, 3, 1, 1,16,mavlink_param_value_t,param_value,0,param_count,252,param_index,202,param_id,AHRS_GPS_GAIN,param_type,9,,Len,33
11/14/2012 10:33:37 AM,FE,19, 4, 1, 1,16,mavlink_param_value_t,param_value,1,param_count,252,param_index,203,param_id,AHRS_GPS_USE,param_type,2,,Len,33
11/14/2012 10:33:37 AM,FE,19, 5, 1, 1,16,mavlink_param_value_t,param_value,0.1,param_count,252,param_index,204,param_id,AHRS_YAW_P,param_type,9,,Len,33
11/14/2012 10:33:37 AM,FE,19, 6, 1, 1,16,mavlink_param_value_t,param_value,0.1,param_count,252,param_index,205,param_id,AHRS_RP_P,param_type,9,,Len,33
11/14/2012 10:33:37 AM,FE,19, 7, 1, 1,16,mavlink_param_value_t,param_value,0,param_count,252,param_index,206,param_id,AHRS_WIND_MAX,param_type,2,,Len,33
11/14/2012 10:33:37 AM,FE,19, 8, 1, 1,16,mavlink_param_value_t,param_value,0,param_count,252,param_index,207,param_id,AHRS_BARO_USE,param_type,2,,Len,33
11/14/2012 10:33:37 AM,FE,19, 9, 1, 1,16,mavlink_param_value_t,param_value,0,param_count,252,param_index,208,param_id,MNT_MODE,param_type,2,,Len,33
11/14/2012 10:33:37 AM,FE,19, A, 1, 1,16,mavlink_param_value_t,param_value,0,param_count,252,param_index,209,param_id,MNT_RETRACT_X,param_type,9,,Len,33
11/14/2012 10:33:37 AM,FE,19, B, 1, 1,16,mavlink_param_value_t,param_value,0,param_count,252,param_index,210,param_id,MNT_RETRACT_Y,param_type,9,,Len,33
11/14/2012 10:33:37 AM,FE,19, C, 1, 1,16,mavlink_param_value_t,param_value,0,param_count,252,param_index,211,param_id,MNT_RETRACT_Z,param_type,9,,Len,33
11/14/2012 10:33:37 AM,FE,19, D, 1, 1,16,mavlink_param_value_t,param_value,0,param_count,252,param_index,212,param_id,MNT_NEUTRAL_X,param_type,9,,Len,33
11/14/2012 10:33:37 AM,FE,19, E, 1, 1,16,mavlink_param_value_t,param_value,0,param_count,252,param_index,213,param_id,MNT_NEUTRAL_Y,param_type,9,,Len,33
11/14/2012 10:33:37 AM,FE,19, F, 1, 1,16,mavlink_param_value_t,param_value,0,param_count,252,param_index,214,param_id,MNT_NEUTRAL_Z,param_type,9,,Len,33
11/14/2012 10:33:37 AM,FE,19,10, 1, 1,16,mavlink_param_value_t,param_value,0,param_count,252,param_index,215,param_id,MNT_CONTROL_X,param_type,9,,Len,33
11/14/2012 10:33:37 AM,FE,19,11, 1, 1,16,mavlink_param_value_t,param_value,0,param_count,252,param_index,216,param_id,MNT_CONTROL_Y,param_type,9,,Len,33
11/14/2012 10:33:37 AM,FE,19,12, 1, 1,16,mavlink_param_value_t,param_value,0,param_count,252,param_index,217,param_id,MNT_CONTROL_Z,param_type,9,,Len,33
11/14/2012 10:33:37 AM,FE, 9,13, 1, 1, 0,mavlink_heartbeat_t,custom_mode,0,type,2,autopilot,3,base_mode,81,system_status,4,mavlink_version,3,,Len,17
11/14/2012 10:33:37 AM,FE,19,14, 1, 1,16,mavlink_param_value_t,param_value,0,param_count,252,param_index,218,param_id,MNT_STAB_ROLL,param_type,2,,Len,33
11/14/2012 10:33:37 AM,FE,19,15, 1, 1,16,mavlink_param_value_t,param_value,0,param_count,252,param_index,219,param_id,MNT_STAB_TILT,param_type,2,,Len,33
11/14/2012 10:33:37 AM,FE,19,16, 1, 1,16,mavlink_param_value_t,param_value,0,param_count,252,param_index,220,param_id,MNT_STAB_PAN,param_type,2,,Len,33
11/14/2012 10:33:37 AM,FE,19,17, 1, 1,16,mavlink_param_value_t,param_value,0,param_count,252,param_index,221,param_id,MNT_RC_IN_ROLL,param_type,2,,Len,33
11/14/2012 10:33:37 AM,FE,19,18, 1, 1,16,mavlink_param_value_t,param_value,-4500,param_count,252,param_index,222,param_id,MNT_ANGMIN_ROL,param_type,4,,Len,33
11/14/2012 10:33:37 AM,FE,19,19, 1, 1,16,mavlink_param_value_t,param_value,4500,param_count,252,param_index,223,param_id,MNT_ANGMAX_ROL,param_type,4,,Len,33
11/14/2012 10:33:37 AM,FE,19,1A, 1, 1,16,mavlink_param_value_t,param_value,0,param_count,252,param_index,224,param_id,MNT_RC_IN_TILT,param_type,2,,Len,33
11/14/2012 10:33:38 AM,FE,19,1B, 1, 1,16,mavlink_param_value_t,param_value,-4500,param_count,252,param_index,225,param_id,MNT_ANGMIN_TIL,param_type,4,,Len,33
11/14/2012 10:33:38 AM,FE,19,1C, 1, 1,16,mavlink_param_value_t,param_value,4500,param_count,252,param_index,226,param_id,MNT_ANGMAX_TIL,param_type,4,,Len,33
11/14/2012 10:33:38 AM,FE,19,1D, 1, 1,16,mavlink_param_value_t,param_value,0,param_count,252,param_index,227,param_id,MNT_RC_IN_PAN,param_type,2,,Len,33
11/14/2012 10:33:38 AM,FE,19,1E, 1, 1,16,mavlink_param_value_t,param_value,-4500,param_count,252,param_index,228,param_id,MNT_ANGMIN_PAN,param_type,4,,Len,33
11/14/2012 10:33:38 AM,FE,19,1F, 1, 1,16,mavlink_param_value_t,param_value,4500,param_count,252,param_index,229,param_id,MNT_ANGMAX_PAN,param_type,4,,Len,33
11/14/2012 10:33:38 AM,FE,19,20, 1, 1,16,mavlink_param_value_t,param_value,0,param_count,252,param_index,230,param_id,MNT_JSTICK_SPD,param_type,2,,Len,33
11/14/2012 10:33:38 AM,FE,19,21, 1, 1,16,mavlink_param_value_t,param_value,0,param_count,252,param_index,231,param_id,LIM_ENABLED,param_type,2,,Len,33
11/14/2012 10:33:38 AM,FE,19,22, 1, 1,16,mavlink_param_value_t,param_value,0,param_count,252,param_index,232,param_id,LIM_REQUIRED,param_type,2,,Len,33
11/14/2012 10:33:38 AM,FE,19,23, 1, 1,16,mavlink_param_value_t,param_value,0,param_count,252,param_index,233,param_id,LIM_DEBUG,param_type,2,,Len,33
11/14/2012 10:33:38 AM,FE,19,24, 1, 1,16,mavlink_param_value_t,param_value,0,param_count,252,param_index,234,param_id,LIM_SAFETIME,param_type,2,,Len,33
11/14/2012 10:33:38 AM,FE,19,25, 1, 1,16,mavlink_param_value_t,param_value,0,param_count,252,param_index,235,param_id,LIM_CHANNEL,param_type,2,,Len,33
11/14/2012 10:33:38 AM,FE,19,26, 1, 1,16,mavlink_param_value_t,param_value,0,param_count,252,param_index,236,param_id,LIM_RECMODE,param_type,2,,Len,33
11/14/2012 10:33:38 AM,FE,19,27, 1, 1,16,mavlink_param_value_t,param_value,0,param_count,252,param_index,237,param_id,LIM_GPSLCK_ON,param_type,2,,Len,33
11/14/2012 10:33:38 AM,FE,19,28, 1, 1,16,mavlink_param_value_t,param_value,0,param_count,252,param_index,238,param_id,LIM_GPSLCK_REQ,param_type,2,,Len,33
11/14/2012 10:33:38 AM,FE,19,29, 1, 1,16,mavlink_param_value_t,param_value,0,param_count,252,param_index,239,param_id,LIM_FNC_ON,param_type,2,,Len,33
11/14/2012 10:33:38 AM,FE,19,2A, 1, 1,16,mavlink_param_value_t,param_value,0,param_count,252,param_index,240,param_id,LIM_FNC_REQ,param_type,2,,Len,33
11/14/2012 10:33:38 AM,FE,19,2B, 1, 1,16,mavlink_param_value_t,param_value,0,param_count,252,param_index,241,param_id,LIM_FNC_SMPL,param_type,2,,Len,33
11/14/2012 10:33:38 AM,FE,19,2C, 1, 1,16,mavlink_param_value_t,param_value,0,param_count,252,param_index,242,param_id,LIM_FNC_RAD,param_type,4,,Len,33
11/14/2012 10:33:38 AM,FE, 9,2D, 1, 1, 0,mavlink_heartbeat_t,custom_mode,0,type,2,autopilot,3,base_mode,81,system_status,4,mavlink_version,3,,Len,17
11/14/2012 10:33:38 AM,FE,19,2E, 1, 1,16,mavlink_param_value_t,param_value,0,param_count,252,param_index,243,param_id,LIM_FNC_TOT,param_type,2,,Len,33
11/14/2012 10:33:38 AM,FE,19,2F, 1, 1,16,mavlink_param_value_t,param_value,0,param_count,252,param_index,244,param_id,LIM_ALT_ON,param_type,2,,Len,33
11/14/2012 10:33:38 AM,FE,19,30, 1, 1,16,mavlink_param_value_t,param_value,0,param_count,252,param_index,245,param_id,LIM_ALT_REQ,param_type,2,,Len,33
11/14/2012 10:33:38 AM,FE,19,31, 1, 1,16,mavlink_param_value_t,param_value,0,param_count,252,param_index,246,param_id,LIM_ALT_MIN,param_type,6,,Len,33
11/14/2012 10:33:38 AM,FE,19,32, 1, 1,16,mavlink_param_value_t,param_value,0,param_count,252,param_index,247,param_id,LIM_ALT_MAX,param_type,6,,Len,33
11/14/2012 10:33:38 AM,FE,19,33, 1, 1,16,mavlink_param_value_t,param_value,1,param_count,252,param_index,248,param_id,MOT_TB_RATIO,param_type,9,,Len,33
11/14/2012 10:33:38 AM,FE,19,34, 1, 1,16,mavlink_param_value_t,param_value,1,param_count,252,param_index,249,param_id,MOT_TCRV_ENABLE,param_type,2,,Len,33
11/14/2012 10:33:38 AM,FE,19,35, 1, 1,16,mavlink_param_value_t,param_value,52,param_count,252,param_index,250,param_id,MOT_TCRV_MIDPCT,param_type,2,,Len,33
11/14/2012 10:33:38 AM,FE,19,36, 1, 1,16,mavlink_param_value_t,param_value,93,param_count,252,param_index,251,param_id,MOT_TCRV_MAXPCT,param_type,2,,Len,33
11/14/2012 10:33:39 AM,FE, 6,97,FF,BE,42,mavlink_request_data_stream_t,req_message_rate,2,target_system,1,target_component,1,req_stream_id,2,start_stop,1,,Len,14
11/14/2012 10:33:39 AM,FE, 6,98,FF,BE,42,mavlink_request_data_stream_t,req_message_rate,2,target_system,1,target_component,1,req_stream_id,2,start_stop,1,,Len,14
11/14/2012 10:33:39 AM,FE, 6,99,FF,BE,42,mavlink_request_data_stream_t,req_message_rate,3,target_system,1,target_component,1,req_stream_id,6,start_stop,1,,Len,14
11/14/2012 10:33:39 AM,FE, 6,9A,FF,BE,42,mavlink_request_data_stream_t,req_message_rate,3,target_system,1,target_component,1,req_stream_id,6,start_stop,1,,Len,14
11/14/2012 10:33:39 AM,FE, 6,9B,FF,BE,42,mavlink_request_data_stream_t,req_message_rate,10,target_system,1,target_component,1,req_stream_id,10,start_stop,1,,Len,14
11/14/2012 10:33:39 AM,FE, 6,9C,FF,BE,42,mavlink_request_data_stream_t,req_message_rate,10,target_system,1,target_component,1,req_stream_id,10,start_stop,1,,Len,14
11/14/2012 10:33:39 AM,FE, 6,9D,FF,BE,42,mavlink_request_data_stream_t,req_message_rate,10,target_system,1,target_component,1,req_stream_id,11,start_stop,1,,Len,14
11/14/2012 10:33:39 AM,FE, 6,9E,FF,BE,42,mavlink_request_data_stream_t,req_message_rate,10,target_system,1,target_component,1,req_stream_id,11,start_stop,1,,Len,14
11/14/2012 10:33:39 AM,FE, 6,9F,FF,BE,42,mavlink_request_data_stream_t,req_message_rate,2,target_system,1,target_component,1,req_stream_id,12,start_stop,1,,Len,14
11/14/2012 10:33:39 AM,FE, 6,A0,FF,BE,42,mavlink_request_data_stream_t,req_message_rate,2,target_system,1,target_component,1,req_stream_id,12,start_stop,1,,Len,14
11/14/2012 10:33:39 AM,FE, 6,A1,FF,BE,42,mavlink_request_data_stream_t,req_message_rate,2,target_system,1,target_component,1,req_stream_id,1,start_stop,1,,Len,14
11/14/2012 10:33:39 AM,FE, 6,A2,FF,BE,42,mavlink_request_data_stream_t,req_message_rate,2,target_system,1,target_component,1,req_stream_id,1,start_stop,1,,Len,14
11/14/2012 10:33:39 AM,FE, 6,A3,FF,BE,42,mavlink_request_data_stream_t,req_message_rate,2,target_system,1,target_component,1,req_stream_id,3,start_stop,1,,Len,14
11/14/2012 10:33:39 AM,FE, 6,A4,FF,BE,42,mavlink_request_data_stream_t,req_message_rate,2,target_system,1,target_component,1,req_stream_id,3,start_stop,1,,Len,14
11/14/2012 10:33:39 AM,FE, 9,A5,FF,BE, 0,mavlink_heartbeat_t,custom_mode,0,type,6,autopilot,3,base_mode,0,system_status,0,mavlink_version,3,,Len,17
11/14/2012 10:33:39 AM,FE,1C,37, 1, 1,1E,mavlink_attitude_t,time_boot_ms,141812,roll,-0.01563009,pitch,-0.01662144,yaw,-2.064113,rollspeed,0.00167815,pitchspeed,0.0003418904,yawspeed,-0.0006638071,,Len,36
11/14/2012 10:33:39 AM,FE,14,38, 1, 1,4A,mavlink_vfr_hud_t,airspeed,0.01,groundspeed,0.01,alt,-1.22,climb,0,heading,241,throttle,17,,Len,28
11/14/2012 10:33:39 AM,FE,1C,39, 1, 1,1E,mavlink_attitude_t,time_boot_ms,141935,roll,-0.01562217,pitch,-0.01663633,yaw,-2.064445,rollspeed,0.001146041,pitchspeed,-0.0001902189,yawspeed,-0.0006638071,,Len,36
11/14/2012 10:33:39 AM,FE,1F,3A, 1, 1, 1,mavlink_sys_status_t,onboard_control_sensors_present,4294966319,onboard_control_sensors_enabled,4294945839,onboard_control_sensors_health,4294966319,load,0,voltage_battery,10080,current_battery,-1,drop_rate_comm,0,errors_comm,0,errors_count1,0,errors_count2,0,errors_count3,0,errors_count4,0,battery_remaining,255,,Len,39
11/14/2012 10:33:39 AM,FE, 4,3B, 1, 1,98,mavlink_meminfo_t,brkval,7220,freemem,916,,Len,12
11/14/2012 10:33:39 AM,FE, 2,3C, 1, 1,2A,mavlink_mission_current_t,seq,0,,Len,10
11/14/2012 10:33:39 AM,FE,1E,3D, 1, 1,18,mavlink_gps_raw_int_t,time_usec,141873000,lat,360044747,lon,-789410496,alt,111990,eph,192,epv,65535,vel,2,cog,13945,fix_type,3,satellites_visible,9,,Len,38
11/14/2012 10:33:39 AM,FE,1A,3E, 1, 1,3E,mavlink_nav_controller_output_t,nav_roll,0,nav_pitch,0,alt_error,0,aspd_error,0,xtrack_error,0,nav_bearing,114,target_bearing,114,wp_dist,65535,,Len,34
11/14/2012 10:33:39 AM,FE,14,3F, 1, 1,4A,mavlink_vfr_hud_t,airspeed,0.02,groundspeed,0.02,alt,-1.17,climb,0.16,heading,241,throttle,17,,Len,28
11/14/2012 10:33:39 AM,FE, 9,C9,33,44,A6,mavlink_radio_t,rxerrors,1,fixedp,0,rssi,133,remrssi,130,txbuf,100,noise,32,remnoise,24,,Len,17
11/14/2012 10:33:39 AM,FE,1A,40, 1, 1,1B,mavlink_raw_imu_t,time_usec,142055300,xacc,-17,yacc,15,zacc,-1026,xgyro,1,ygyro,0,zgyro,0,xmag,-52,ymag,150,zmag,170,,Len,34
11/14/2012 10:33:39 AM,FE, E,41, 1, 1,1D,mavlink_scaled_pressure_t,time_boot_ms,142055,press_abs,1019.475,press_diff,0.1345312,temperature,1843,,Len,22
11/14/2012 10:33:39 AM,FE,2A,42, 1, 1,96,mavlink_sensor_offsets_t,mag_declination,-0.1542217,raw_press,8848825,raw_temp,8197784,gyro_cal_x,-0.04424693,gyro_cal_y,-0.008855646,gyro_cal_z,0.005452795,accel_cal_x,0.2503985,accel_cal_y,-0.179539,accel_cal_z,1.383022,mag_ofs_x,29,mag_ofs_y,11,mag_ofs_z,2,,Len,50
11/14/2012 10:33:39 AM,FE,15,43, 1, 1,24,mavlink_servo_output_raw_t,time_usec,142057496,servo1_raw,1126,servo2_raw,1126,servo3_raw,1126,servo4_raw,1126,servo5_raw,1126,servo6_raw,1126,servo7_raw,0,servo8_raw,0,port,0,,Len,29
11/14/2012 10:33:39 AM,FE,16,44, 1, 1,23,mavlink_rc_channels_raw_t,time_boot_ms,142057,chan1_raw,1524,chan2_raw,1523,chan3_raw,1194,chan4_raw,1513,chan5_raw,1124,chan6_raw,1521,chan7_raw,1496,chan8_raw,1496,port,0,rssi,1,,Len,30
11/14/2012 10:33:39 AM,FE,1C,45, 1, 1,1E,mavlink_attitude_t,time_boot_ms,142058,roll,-0.01563062,pitch,-0.01664587,yaw,-2.06386,rollspeed,0.001146041,pitchspeed,-0.0001902189,yawspeed,0.0009325221,,Len,36
11/14/2012 10:33:39 AM,FE,1C,46, 1, 1,A3,mavlink_ahrs_t,omegaIx,-0.0003795192,omegaIy,5.054912E-06,omegaIz,-0.0003249564,accel_weight,1,renorm_val,0,error_rp,0.0004379014,error_yaw,0.003327442,,Len,36
11/14/2012 10:33:39 AM,FE, 3,47, 1, 1,A5,mavlink_hwstatus_t,Vcc,4772,I2Cerr,0,,Len,11
11/14/2012 10:33:39 AM,FE,14,48, 1, 1,4A,mavlink_vfr_hud_t,airspeed,0.01,groundspeed,0.01,alt,-1.13,climb,0.18,heading,241,throttle,17,,Len,28
11/14/2012 10:33:39 AM,FE,1C,49, 1, 1,1E,mavlink_attitude_t,time_boot_ms,142174,roll,-0.0156129,pitch,-0.01662034,yaw,-2.064141,rollspeed,0.00167815,pitchspeed,0.0003418904,yawspeed,-0.0006638071,,Len,36
11/14/2012 10:33:39 AM,FE,14,4A, 1, 1,4A,mavlink_vfr_hud_t,airspeed,0.01,groundspeed,0.01,alt,-1.12,climb,0.22,heading,241,throttle,17,,Len,28
11/14/2012 10:33:39 AM,FE,1C,4B, 1, 1,1E,mavlink_attitude_t,time_boot_ms,142294,roll,-0.01563758,pitch,-0.01660432,yaw,-2.064374,rollspeed,-0.000450287,pitchspeed,-0.0007223291,yawspeed,-0.001195917,,Len,36
11/14/2012 10:33:39 AM,FE,14,4C, 1, 1,4A,mavlink_vfr_hud_t,airspeed,0.01,groundspeed,0.01,alt,-1.13,climb,0.11,heading,241,throttle,17,,Len,28
11/14/2012 10:33:39 AM,FE,1C,4D, 1, 1,1E,mavlink_attitude_t,time_boot_ms,142414,roll,-0.01562302,pitch,-0.01662316,yaw,-2.064157,rollspeed,8.182228E-05,pitchspeed,-0.0001902189,yawspeed,-0.0001316974,,Len,36
11/14/2012 10:33:39 AM,FE, 9,4E, 1, 1, 0,mavlink_heartbeat_t,custom_mode,0,type,2,autopilot,3,base_mode,81,system_status,4,mavlink_version,3,,Len,17
11/14/2012 10:33:39 AM,FE,14,4F, 1, 1,4A,mavlink_vfr_hud_t,airspeed,0.01,groundspeed,0.01,alt,-1.13,climb,0.04,heading,241,throttle,17,,Len,28
11/14/2012 10:33:39 AM,FE,1F,50, 1, 1, 1,mavlink_sys_status_t,onboard_control_sensors_present,4294966319,onboard_control_sensors_enabled,4294945839,onboard_control_sensors_health,4294966319,load,0,voltage_battery,10080,current_battery,-1,drop_rate_comm,0,errors_comm,0,errors_count1,0,errors_count2,0,errors_count3,0,errors_count4,0,battery_remaining,255,,Len,39
11/14/2012 10:33:39 AM,FE, 4,51, 1, 1,98,mavlink_meminfo_t,brkval,7220,freemem,916,,Len,12
11/14/2012 10:33:39 AM,FE, 2,52, 1, 1,2A,mavlink_mission_current_t,seq,0,,Len,10
11/14/2012 10:33:39 AM,FE,1E,53, 1, 1,18,mavlink_gps_raw_int_t,time_usec,142474000,lat,360044747,lon,-789410492,alt,111970,eph,192,epv,65535,vel,2,cog,13945,fix_type,3,satellites_visible,9,,Len,38
11/14/2012 10:33:39 AM,FE,1A,54, 1, 1,3E,mavlink_nav_controller_output_t,nav_roll,0,nav_pitch,0,alt_error,0,aspd_error,0,xtrack_error,0,nav_bearing,114,target_bearing,114,wp_dist,65535,,Len,34
11/14/2012 10:33:39 AM,FE,1C,55, 1, 1,1E,mavlink_attitude_t,time_boot_ms,142534,roll,-0.01561771,pitch,-0.0165811,yaw,-2.06373,rollspeed,8.182228E-05,pitchspeed,-0.0001902189,yawspeed,0.0004004124,,Len,36
11/14/2012 10:33:39 AM,FE,1A,56, 1, 1,1B,mavlink_raw_imu_t,time_usec,142576124,xacc,-16,yacc,12,zacc,-1029,xgyro,2,ygyro,0,zgyro,0,xmag,-53,ymag,158,zmag,168,,Len,34
11/14/2012 10:33:39 AM,FE, E,57, 1, 1,1D,mavlink_scaled_pressure_t,time_boot_ms,142576,press_abs,1019.475,press_diff,0.1348438,temperature,1845,,Len,22
11/14/2012 10:33:39 AM,FE,2A,58, 1, 1,96,mavlink_sensor_offsets_t,mag_declination,-0.1542217,raw_press,8848610,raw_temp,8198377,gyro_cal_x,-0.04424693,gyro_cal_y,-0.008855646,gyro_cal_z,0.005452795,accel_cal_x,0.2503985,accel_cal_y,-0.179539,accel_cal_z,1.383022,mag_ofs_x,29,mag_ofs_y,11,mag_ofs_z,2,,Len,50
11/14/2012 10:33:40 AM,FE,15,59, 1, 1,24,mavlink_servo_output_raw_t,time_usec,142578276,servo1_raw,1126,servo2_raw,1126,servo3_raw,1126,servo4_raw,1126,servo5_raw,1126,servo6_raw,1126,servo7_raw,0,servo8_raw,0,port,0,,Len,29
11/14/2012 10:33:40 AM,FE,16,5A, 1, 1,23,mavlink_rc_channels_raw_t,time_boot_ms,142578,chan1_raw,1525,chan2_raw,1522,chan3_raw,1193,chan4_raw,1514,chan5_raw,1125,chan6_raw,1522,chan7_raw,1496,chan8_raw,1496,port,0,rssi,1,,Len,30
11/14/2012 10:33:40 AM,FE,14,5B, 1, 1,4A,mavlink_vfr_hud_t,airspeed,0.02,groundspeed,0.02,alt,-1.14,climb,0.04,heading,241,throttle,17,,Len,28
